{
"type": "FeatureCollection",
"name": "borders_pretty",
"features": [
{ "type": "Feature", "properties": { "name": "avdiivka", "date": "2022-03-21" }, "geometry": { "type": "Point", "coordinates": [ 37.742736466937089, 48.126976722852255 ] } },
{ "type": "Feature", "properties": { "name": "avdiivka", "date": "2022-03-21" }, "geometry": { "type": "Point", "coordinates": [ 37.742736466937089, 48.126976722852255 ] } },
{ "type": "Feature", "properties": { "name": "bila_krynyz", "date": "2022-06-21" }, "geometry": { "type": "Point", "coordinates": [ 33.042424078758259, 47.177897608880265 ] } },
{ "type": "Feature", "properties": { "name": "bila_krynyz2", "date": "2022-06-20" }, "geometry": { "type": "Point", "coordinates": [ 33.173987179871162, 47.207867663704562 ] } },
{ "type": "Feature", "properties": { "name": "borodjanka", "date": "2024-04-07" }, "geometry": { "type": "Point", "coordinates": [ 29.918448984473013, 50.645801786342687 ] } },
{ "type": "Feature", "properties": { "name": "Brazhivka_1", "date": "2022-05-05" }, "geometry": { "type": "Point", "coordinates": [ 37.226030103611144, 49.035309819911532 ] } },
{ "type": "Feature", "properties": { "name": "Brazhivka_2", "date": "2022-05-05" }, "geometry": { "type": "Point", "coordinates": [ 37.250691911867747, 48.990793386692296 ] } },
{ "type": "Feature", "properties": { "name": "dergachi", "date": "2022-07-09" }, "geometry": { "type": "Point", "coordinates": [ 36.12963618702144, 50.093616621651833 ] } },
{ "type": "Feature", "properties": { "name": "dmytrivka", "date": "2022-05-17" }, "geometry": { "type": "Point", "coordinates": [ 30.22593649371052, 50.467406906367991 ] } },
{ "type": "Feature", "properties": { "name": "dovhenke", "date": "2022-06-28" }, "geometry": { "type": "Point", "coordinates": [ 37.312735410418952, 49.022005136367426 ] } },
{ "type": "Feature", "properties": { "name": "Drujne", "date": "2022-03-30" }, "geometry": { "type": "Point", "coordinates": [ 33.214634922208425, 46.445167923033956 ] } },
{ "type": "Feature", "properties": { "name": "irpin", "date": "2022-04-07" }, "geometry": { "type": "Point", "coordinates": [ 30.208267228917016, 50.550369416061415 ] } },
{ "type": "Feature", "properties": { "name": "izum", "date": "2022-03-22" }, "geometry": { "type": "Point", "coordinates": [ 37.260708968785522, 49.231784759179241 ] } },
{ "type": "Feature", "properties": { "name": "kamjanske_1", "date": "2022-05-25" }, "geometry": { "type": "Point", "coordinates": [ 35.375267192555953, 47.493736519009417 ] } },
{ "type": "Feature", "properties": { "name": "kamjanske_2", "date": "2022-05-25" }, "geometry": { "type": "Point", "coordinates": [ 35.40064697156523, 47.537160641542258 ] } },
{ "type": "Feature", "properties": { "name": "kreminna", "date": "2022-04-21" }, "geometry": { "type": "Point", "coordinates": [ 38.230333882959279, 49.058450699412042 ] } },
{ "type": "Feature", "properties": { "name": "lyman", "date": "2022-06-11" }, "geometry": { "type": "Point", "coordinates": [ 37.929436478199236, 49.018032000647068 ] } },
{ "type": "Feature", "properties": { "name": "lyman2", "date": "2022-06-11" }, "geometry": { "type": "Point", "coordinates": [ 37.802472430704938, 48.981400451615663 ] } },
{ "type": "Feature", "properties": { "name": "novodru_1", "date": "2022-06-20" }, "geometry": { "type": "Point", "coordinates": [ 38.385146592926219, 48.983172053751574 ] } },
{ "type": "Feature", "properties": { "name": "novodru_2", "date": "2022-06-20" }, "geometry": { "type": "Point", "coordinates": [ 38.270673895568095, 48.963847306032882 ] } },
{ "type": "Feature", "properties": { "name": "novomyha", "date": "2022-05-07" }, "geometry": { "type": "Point", "coordinates": [ 37.508710166235751, 47.855851102265383 ] } },
{ "type": "Feature", "properties": { "name": "novotoshiv", "date": "2022-06-08" }, "geometry": { "type": "Point", "coordinates": [ 38.668149900175507, 48.737956308971384 ] } },
{ "type": "Feature", "properties": { "name": "nurkove", "date": "2022-06-09" }, "geometry": { "type": "Point", "coordinates": [ 38.294077775782341, 48.68165027378587 ] } },
{ "type": "Feature", "properties": { "name": "osokorivka", "date": "2022-06-26" }, "geometry": { "type": "Point", "coordinates": [ 33.948534347663504, 47.377560453711084 ] } },
{ "type": "Feature", "properties": { "name": "poltavka", "date": "2022-04-09" }, "geometry": { "type": "Point", "coordinates": [ 36.464838139915308, 47.721673485099217 ] } },
{ "type": "Feature", "properties": { "name": "popasna", "date": "2022-04-10" }, "geometry": { "type": "Point", "coordinates": [ 38.3750065490621, 48.631726343896979 ] } },
{ "type": "Feature", "properties": { "name": "prud", "date": "2022-05-05" }, "geometry": { "type": "Point", "coordinates": [ 36.174461988110181, 50.230888174132737 ] } },
{ "type": "Feature", "properties": { "name": "prudne", "date": "2022-06-07" }, "geometry": { "type": "Point", "coordinates": [ 36.675906699108396, 47.710432824111543 ] } },
{ "type": "Feature", "properties": { "name": "prudne_2", "date": "2022-06-07" }, "geometry": { "type": "Point", "coordinates": [ 36.703103588258188, 47.769617963848219 ] } },
{ "type": "Feature", "properties": { "name": "rogan", "date": "2022-04-08" }, "geometry": { "type": "Point", "coordinates": [ 36.480600648243538, 49.899150434559637 ] } },
{ "type": "Feature", "properties": { "name": "rubizhne", "date": "2022-04-08" }, "geometry": { "type": "Point", "coordinates": [ 38.542135114219413, 48.90277050588157 ] } },
{ "type": "Feature", "properties": { "name": "rubzi", "date": "2022-04-15" }, "geometry": { "type": "Point", "coordinates": [ 37.534317000260756, 49.182008156829909 ] } },
{ "type": "Feature", "properties": { "name": "severodoneck", "date": "2022-06-20" }, "geometry": { "type": "Point", "coordinates": [ 38.488991146604867, 48.965437471155305 ] } },
{ "type": "Feature", "properties": { "name": "siversk", "date": "2022-06-06" }, "geometry": { "type": "Point", "coordinates": [ 38.063027187725083, 48.901733246850206 ] } },
{ "type": "Feature", "properties": { "name": "sviatohirsk", "date": "2022-06-11" }, "geometry": { "type": "Point", "coordinates": [ 37.567564377519979, 49.041460377666887 ] } },
{ "type": "Feature", "properties": { "name": "svitanok", "date": "2022-04-08" }, "geometry": { "type": "Point", "coordinates": [ 36.481373888878792, 49.894024986204442 ] } },
{ "type": "Feature", "properties": { "name": "toshkivka", "date": "2022-06-20" }, "geometry": { "type": "Point", "coordinates": [ 38.579682059680351, 48.78339461697778 ] } },
{ "type": "Feature", "properties": { "name": "travneve", "date": "2022-06-14" }, "geometry": { "type": "Point", "coordinates": [ 38.108470194100789, 48.432913388266904 ] } },
{ "type": "Feature", "properties": { "name": "udy", "date": "2022-06-12" }, "geometry": { "type": "Point", "coordinates": [ 36.070061546784224, 50.393416280296023 ] } },
{ "type": "Feature", "properties": { "name": "velyka_komysha", "date": "2022-05-16" }, "geometry": { "type": "Point", "coordinates": [ 37.00972420666568, 49.090194543573979 ] } },
{ "type": "Feature", "properties": { "name": "velyka_olexan", "date": "2022-06-12" }, "geometry": { "type": "Point", "coordinates": [ 33.28216785770713, 47.295857587207109 ] } },
{ "type": "Feature", "properties": { "name": "vilhivka", "date": "2022-06-14" }, "geometry": { "type": "Point", "coordinates": [ 36.491288589124252, 49.983903254324943 ] } },
{ "type": "Feature", "properties": { "name": "vilhivka", "date": "2022-06-14" }, "geometry": { "type": "Point", "coordinates": [ 36.491103509311458, 49.983884354729874 ] } },
{ "type": "Feature", "properties": { "name": "volnovakha", "date": "2022-05-12" }, "geometry": { "type": "Point", "coordinates": [ 37.503617688669486, 47.589022514288359 ] } },
{ "type": "Feature", "properties": { "name": "vrubivka", "date": "2022-06-09" }, "geometry": { "type": "Point", "coordinates": [ 38.376550450066077, 48.748761081542547 ] } },
{ "type": "Feature", "properties": { "name": "yagidne", "date": "2022-03-20" }, "geometry": { "type": "Point", "coordinates": [ 31.27130419309286, 51.347060577808712 ] } }
]
}
